location_label,latitude,longitude,target_date,rainfall_mm_7d,flood_proxy,sanitation_access_pct,population_density_km2,temperature_c,surface_water_index,risk_score
Khulna River Delta,22.81,89.55,2026-03-22,228.0,0.91,41.0,2340.0,31.0,0.88,73.29
Barisal Floodplain,22.72,90.36,2026-03-22,198.0,0.79,48.0,1980.0,30.3,0.74,64.13
Dhaka Periphery,23.88,90.41,2026-03-22,166.0,0.55,62.0,4610.0,31.6,0.49,63.57
Sylhet Tea Belt,24.87,91.92,2026-03-22,144.0,0.46,67.0,1260.0,29.9,0.58,47.79
Rajshahi Northwest,24.37,88.61,2026-03-22,82.0,0.19,74.0,930.0,30.1,0.18,27.5
